     3.03           OBSERVATION DATA    M: Mixed            RINEX VERSION / TYPE
GNSS-SDRLIB v1.1                        20260216 073412 UTC PGM / RUN BY / DATE 
                                                            MARKER NAME         
                                                            MARKER NUMBER       
                                                            MARKER TYPE         
                                                            OBSERVER / AGENCY   
GNSS-SDRLIB         GNSS-SDRLIB         1.1                 REC # / TYPE / VERS 
                                                            ANT # / TYPE        
        0.0000        0.0000        0.0000                  APPROX POSITION XYZ 
        0.0000        0.0000        0.0000                  ANTENNA: DELTA H/E/N
G    4 C1C L1C D1C S1C                                      SYS / # / OBS TYPES 
R    4 C1C L1C D1C S1C                                      SYS / # / OBS TYPES 
E    4 C1C L1C D1C S1C                                      SYS / # / OBS TYPES 
J    4 C1C L1C D1C S1C                                      SYS / # / OBS TYPES 
S    4 C1C L1C D1C S1C                                      SYS / # / OBS TYPES 
C    4 C1C L1C D1C S1C                                      SYS / # / OBS TYPES 
I    4 C1C L1C D1C S1C                                      SYS / # / OBS TYPES 
  2026    02    16    07    34   12.7879460     GPS         TIME OF FIRST OBS   
  2026    02    16    07    34   12.7879460     GPS         TIME OF LAST OBS    
G L1C                                                       SYS / PHASE SHIFT   
R L1C                                                       SYS / PHASE SHIFT   
E L1C  0.00000                                              SYS / PHASE SHIFT   
J L1C                                                       SYS / PHASE SHIFT   
S L1C                                                       SYS / PHASE SHIFT   
C L1C  0.00000                                              SYS / PHASE SHIFT   
I L1C  0.00000                                              SYS / PHASE SHIFT   
  0                                                         GLONASS SLOT / FRQ #
 C1C    0.000 C1P    0.000 C2C    0.000 C2P    0.000        GLONASS COD/PHS/BIS 
                                                            END OF HEADER       
> 2026 02 15 23 35 36.0688020  0  1                     
G07  20620623.359       41763.664        1284.922           0.255  
> 2026 02 15 23 35 36.0688020  0  3                     
G04  21000433.020      110845.030        3252.290           0.255  
G05  20619289.304       52267.976        1559.554           0.255  
G07  22051810.303       41757.527        1284.397           0.255  
> 2026 02 15 23 35 36.0688020  0  4                     
G03  24026232.500      156158.788        4524.824           0.255  
G04  21000433.020      110845.030        3252.290           0.255  
G05  20619289.304       52267.976        1559.554           0.255  
G07  22051810.303       41757.527        1284.397           0.255  
> 2026 02 15 23 35 36.0688020  0  6                     
G02  23514919.443       46982.197        1340.739           0.255  
G03  24026232.500      156158.788        4524.824           0.255  
G04  21000433.020      110845.030        3252.290           0.255  
G05  20619289.304       52267.976        1559.554           0.255  
G07  22051810.303       41757.527        1284.397           0.255  
G09  24179288.186       15355.596         485.935           0.255  
> 2026 02 15 23 35 36.1688020  0  7                     
G02  23514885.003       47115.683        1329.869           0.255  
G03  24026116.277      156610.134        4512.329           0.255  
G04  21000355.425      111169.668        3243.660           0.255  
G05  20619248.272       52423.381        1551.331           0.255  
G06  24025106.895      163187.212        4916.574           0.255  
G07  22051773.279       41885.716        1278.914           0.255  
G09  24179276.527       15403.969         478.885           0.255  
> 2026 02 15 23 35 36.2688020  0  7                     
G02  23514849.182       47248.789        1335.318           0.255  
G03  24026003.318      157060.999        4513.273           0.255  
G04  21000275.525      111493.887        3247.063           0.255  
G05  20619205.925       52578.393        1554.340           0.255  
G06  24024977.549      163678.449        4915.750           0.255  
G07  22051738.768       42013.444        1281.480           0.255  
G09  24179262.354       15451.922         483.270           0.255  
> 2026 02 15 23 35 36.3688020  0  7                     
G02  23514812.886       47382.960        1339.769           0.255  
G03  24025886.260      157512.996        4520.660           0.255  
G04  21000194.694      111819.191        3252.154           0.255  
G05  20619166.637       52734.490        1560.845           0.255  
G06  24024855.611      164170.792        4922.439           0.255  
G07  22051708.598       42142.286        1287.445           0.255  
G09  24179253.417       15501.000         495.397           0.255  
> 2026 02 15 23 35 36.4688020  0  7                     
G02  23514778.679       47517.124        1345.701           0.255  
G03  24025768.906      157964.995        4520.927           0.255  
G04  21000109.801      112144.496        3255.396           0.255  
G05  20619128.341       52890.584        1562.997           0.255  
G06  24024731.682      164663.141        4924.655           0.255  
G07  22051677.872       42271.097        1289.135           0.255  
G09  24179242.795       15550.026         500.095           0.255  
> 2026 02 15 23 35 36.5688020  0  7                     
G02  23514747.549       47651.459        1341.958           0.255  
G03  24025653.659      158417.181        4518.625           0.255  
G04  21000025.047      112469.983        3253.184           0.255  
G05  20619087.914       53046.860        1561.003           0.255  
G06  24024603.078      165155.667        4923.561           0.255  
G07  22051642.970       42400.125        1289.019           0.255  
G09  24179226.744       15599.183         490.850           0.255  
> 2026 02 15 23 35 36.6688020  0  7                     
G02  23514718.575       47784.816        1326.724           0.255  
G03  24025540.293      158868.364        4506.419           0.255  
G04  20999940.826      112794.469        3239.358           0.255  
G05  20619049.458       53202.133        1547.228           0.255  
G06  24024476.287      165647.191        4909.180           0.255  
G07  22051605.081       42528.142        1272.346           0.255  
G09  24179212.751       15647.408         474.074           0.255  
> 2026 02 15 23 35 36.7688020  0  7                     
G02  23514684.981       47917.477        1326.118           0.255  
G03  24025426.950      159318.848        4504.777           0.255  
G04  20999856.982      113118.259        3238.001           0.255  
G05  20619010.646       53356.716        1547.219           0.255  
G06  24024352.526      166138.031        4909.210           0.255  
G07  22051572.911       42655.447        1307.082           0.255  
G09  24179200.199       15694.939         475.814           0.255  
> 2026 02 15 23 35 36.8688020  0  7                     
G02  23514647.752       48049.984        1323.426           0.255  
G03  24025313.601      159769.212        4500.596           0.255  
G04  20999776.539      113441.912        3234.743           0.255  
G05  20618969.881       53511.156        1543.607           0.255  
G06  24024228.758      166628.743        4906.838           0.255  
G07  22051541.940       42782.647        1270.018           0.255  
G09  24179186.650       15742.312         473.724           0.255  
> 2026 02 15 23 35 36.9688020  0  7                     
G02  23514611.033       48182.957        1334.307           0.255  
G03  24025198.334      160220.037        4513.698           0.255  
G04  20999693.896      113766.017        3245.949           0.255  
G05  20618929.189       53666.063        1553.890           0.255  
G06  24024101.837      167119.908        4917.022           0.255  
G07  22051506.510       42910.303        1281.343           0.255  
G09  24179171.445       15790.160         483.787           0.255  
> 2026 02 15 23 35 37.0688020  0  7                     
G02  23514576.674       48316.304        1330.542           0.255  
G03  24025084.206      160671.229        4509.566           0.255  
G04  20999610.749      114090.501        3239.961           0.255  
G05  20618886.950       53821.329        1548.439           0.255  
G06  24023975.602      167611.448        4912.497           0.255  
G07  22051476.256       43038.333        1276.117           0.255  
G09  24179158.748       15838.355         476.076           0.255  
> 2026 02 15 23 35 37.1688020  0  7                     
G02  23514543.794       48449.504        1335.906           0.255  
G03  24024967.602      161122.256        4513.181           0.255  
G04  20999527.612      114414.823        3243.995           0.255  
G05  20618848.684       53976.446        1552.555           0.255  
G06  24023852.909      168102.836        4916.404           0.255  
G07  22051445.199       43166.207        1279.715           0.255  
G09  24179145.630       15886.407         479.671           0.255  
> 2026 02 15 23 35 37.2688020  0  7                     
G02  23514513.008       48581.239        1293.427           0.255  
G03  24024848.917      161572.049        4498.935           0.255  
G04  20999443.723      114737.897        3227.551           0.255  
G05  20618812.544       54130.321        1535.282           0.255  
G06  24023726.742      168592.972        4899.273           0.255  
G07  22051409.446       43292.813        1262.332           0.255  
G09  24179139.739       15933.224         463.999           0.255  
> 2026 02 15 23 35 37.3688020  0  7                     
G02  23514478.390       48713.767        1328.618           0.255  
G03  24024734.948      162022.256        4507.919           0.255  
G04  20999359.688      115061.388        3242.142           0.255  
G05  20618774.224       54284.601        1550.194           0.255  
G06  24023600.898      169083.526        4912.430           0.255  
G07  22051376.672       43419.838        1275.402           0.255  
G09  24179129.206       15980.431         477.646           0.255  
> 2026 02 15 23 35 37.4688020  0  7                     
G02  23514443.799       48846.954        1330.630           0.255  
G03  24024618.616      162473.300        4510.212           0.255  
G04  20999277.267      115385.711        3244.794           0.255  
G05  20618734.786       54439.712        1552.026           0.255  
G06  24023475.406      169574.903        4914.902           0.255  
G07  22051342.553       43547.716        1279.749           0.255  
G09  24179113.673       16028.489         482.075           0.255  
> 2026 02 15 23 35 37.5688020  0  7                     
G02  23514407.597       48980.042        1329.996           0.255  
G03  24024502.660      162924.199        4506.319           0.255  
G04  20999197.646      115709.925        3241.498           0.255  
G05  20618693.555       54594.725        1549.281           0.255  
G06  24023351.621      170066.198        4911.076           0.255  
G07  22051309.710       43675.484        1276.380           0.255  
G09  24179102.445       16076.430         477.934           0.255  
> 2026 02 15 23 35 37.6688020  0  7                     
G02  23514372.522       49112.956        1332.853           0.255  
G03  24024388.289      163374.956        4507.721           0.255  
G04  20999115.489      116033.972        3243.789           0.255  
G05  20618652.424       54749.562        1551.171           0.255  
G06  24023222.678      170557.313        4914.787           0.255  
G07  22051277.819       43803.067        1277.535           0.255  
G09  24179091.451       16124.223         481.702           0.255  
> 2026 02 15 23 35 37.7688020  0  7                     
G02  23514337.907       49246.385        1337.553           0.255  
G03  24024271.616      163826.279        4513.598           0.255  
G04  20999029.904      116358.541        3249.136           0.255  
G05  20618612.875       54904.937        1556.011           0.255  
G06  24023097.803      171048.966        4917.539           0.255  
G07  22051248.841       43931.211        1283.079           0.255  
G09  24179075.541       16172.503         480.674           0.255  
> 2026 02 15 23 35 37.8688020  0  7                     
G02  23514309.724       49380.068        1338.738           0.255  
G03  24024161.522      164277.829        4513.426           0.255  
G04  20998947.511      116683.366        3251.132           0.255  
G05  20618572.781       55060.556        1556.304           0.255  
G06  24022974.757      171540.888        4920.506           0.255  
G07  22051213.334       44059.610        1286.151           0.255  
G09  24179061.657       16221.083         486.449           0.255  
> 2026 02 15 23 35 37.9688020  0  7                     
G02  23514277.641       49513.607        1332.624           0.255  
G03  24024044.109      164729.223        4512.048           0.255  
G04  20998864.400      117007.652        3194.783           0.255  
G05  20618534.922       55216.013        1551.292           0.255  
G06  24022846.848      172032.648        4916.219           0.255  
G07  22051175.662       44187.819        1350.972           0.255  
G09  24179049.259       16269.435         478.426           0.255  
> 2026 02 15 23 35 38.0688020  0  7                     
G02  23514238.040       49646.796        1384.232           0.255  
G03  24023928.304      165180.365        4510.327           0.255  
G04  20998782.814      117332.396        3241.851           0.255  
G05  20618495.665       55371.207        1548.623           0.255  
G06  24022718.140      172524.144        4913.875           0.255  
G07  22051143.659       44315.402        1254.665           0.255  
G09  24179039.760       16317.592         480.530           0.255  
> 2026 02 15 23 35 38.1688020  0  7                     
G02  23514203.502       49779.899        1330.578           0.255  
G03  24023811.384      165631.277        4512.156           0.255  
G04  20998696.653      117656.576        3240.824           0.255  
G05  20618455.609       55526.197        1547.250           0.255  
G06  24022596.142      173015.441        4913.609           0.255  
G07  22051112.354       44443.575        1279.249           0.255  
G09  24179024.987       16365.524         478.752           0.255  
> 2026 02 15 23 35 38.2688020  0  7                     
G02  23514169.880       49912.704        1325.517           0.255  
G03  24023700.878      166081.954        4505.484           0.255  
G04  20998617.101      117980.542        3238.066           0.255  
G05  20618414.492       55680.981        1546.191           0.255  
G06  24022470.793      173506.489        4909.467           0.255  
G07  22051078.948       44571.098        1276.502           0.255  
G09  24179009.448       16413.208         478.679           0.255  
> 2026 02 15 23 35 38.3688020  0  7                     
G02  23514135.506       50045.499        1327.089           0.255  
G03  24023579.716      166532.592        4506.124           0.255  
G04  20998535.534      118304.476        3241.975           0.255  
G05  20618375.537       55835.701        1549.361           0.255  
G06  24022344.315      173997.530        4913.009           0.255  
G07  22051046.619       44698.563        1276.571           0.255  
G09  24178999.732       16460.853         479.239           0.255  
> 2026 02 15 23 35 38.4688020  0  7                     
G02  23514102.246       50178.005        1327.084           0.255  
G03  24023458.484      166982.976        4498.440           0.255  
G04  20998456.079      118628.114        3237.537           0.255  
G05  20618336.238       55990.140        1545.823           0.255  
G06  24022220.774      174488.278        4909.542           0.255  
G07  22051013.124       44825.596        1255.792           0.255  
G09  24178990.963       16508.249         477.009           0.255  
> 2026 02 15 23 35 38.5688020  0  7                     
G02  23514069.786       50311.173        1334.860           0.255  
G03  24023346.689      167434.064        4511.558           0.255  
G04  20998369.243      118952.422        3246.261           0.255  
G05  20618296.537       56145.245        1552.995           0.255  
G06  24022096.627      174979.681        4917.351           0.255  
G07  22050979.364       44953.644        1279.336           0.255  
G09  24178983.124       16556.266         483.713           0.255  
> 2026 02 15 23 35 38.6688020  0  7                     
G02  23514033.175       50444.151        1331.213           0.255  
G03  24023244.235      167884.949        4511.884           0.255  
G04  20998284.249      119276.543        3242.807           0.255  
G05  20618258.199       56300.168        1550.113           0.255  
G06  24021968.643      175470.933        4915.843           0.255  
G07  22050951.033       45081.371        1279.955           0.255  
G09  24178968.303       16604.147         480.794           0.255  
> 2026 02 15 23 35 38.7688020  0  7                     
G02  23513996.877       50577.560        1336.506           0.255  
G03  24023125.423      168336.207        4512.597           0.255  
G04  20998200.054      119601.072        3245.371           0.255  
G05  20618218.147       56455.522        1554.676           0.255  
G06  24021838.617      175962.578        4917.493           0.255  
G07  22050919.292       45209.482        1282.291           0.255  
G09  24178949.867       16652.396         485.867           0.255  
> 2026 02 15 23 35 38.8688020  0  7                     
G02  23513963.326       50711.033        1333.822           0.255  
G03  24023008.857      168787.600        4514.745           0.255  
G04  20998116.823      119925.605        3264.585           0.255  
G05  20618176.884       56610.965        1555.918           0.255  
G06  24021718.856      176454.328        4921.031           0.255  
G07  22050885.447       45337.416        1278.841           0.255  
G09  24178938.421       16700.788         488.409           0.255  
> 2026 02 15 23 35 38.9688020  0  7                     
G02  23513929.019       50844.707        1336.158           0.255  
G03  24022896.330      169239.169        4514.053           0.255  
G04  20998036.782      120250.499        3247.325           0.255  
G05  20618134.170       56766.571        1556.619           0.255  
G06  24021592.411      176946.250        4918.095           0.255  
G07  22050853.126       45466.091        1284.184           0.255  
G09  24178924.510       16749.286         484.736           0.255  
> 2026 02 15 23 35 39.0688020  0  7                     
G02  23513894.552       50978.019        1331.483           0.255  
G03  24022783.542      169690.367        4507.835           0.255  
G04  20997957.088      120574.963        3242.658           0.255  
G05  20618093.090       56921.841        1551.838           0.255  
G06  24021465.191      177437.840        4914.135           0.255  
G07  22050822.370       45594.150        1278.883           0.255  
G09  24178909.051       16797.476         477.763           0.255  
> 2026 02 15 23 35 39.1688020  0  7                     
G02  23513860.886       51110.921        1331.334           0.255  
G03  24022663.286      170141.174        4511.052           0.255  
G04  20997876.616      120898.995        3243.825           0.255  
G05  20618053.930       57076.686        1552.245           0.255  
G06  24021342.813      177929.004        4913.139           0.255  
G07  22050787.619       45721.770        1279.855           0.255  
G09  24178896.982       16845.249         479.312           0.255  
> 2026 02 15 23 35 39.2688020  0  7                     
G02  23513828.078       51243.721        1324.813           0.255  
G03  24022543.750      170591.921        4505.660           0.255  
G04  20997790.398      121222.950        3238.928           0.255  
G05  20618017.702       57231.439        1546.732           0.255  
G06  24021218.661      178420.095        4909.596           0.255  
G07  22050754.712       45849.295        1274.512           0.255  
G09  24178884.162       16892.919         475.876           0.255  
> 2026 02 15 23 35 39.3688020  0  7                     
G02  23513794.070       51376.647        1328.909           0.255  
G03  24022429.852      171042.750        4508.930           0.255  
G04  20997702.624      121547.000        3237.111           0.255  
G05  20617980.199       57386.301        1544.355           0.255  
G06  24021087.999      178911.291        4908.302           0.255  
G07  22050719.936       45976.927        1269.592           0.255  
G09  24178875.300       16940.701         472.588           0.255  
> 2026 02 15 23 35 39.4688020  0  7                     
G02  23513757.107       51508.916        1317.594           0.255  
G03  24022316.718      171492.913        4493.452           0.255  
G04  20997619.384      121870.424        3228.755           0.255  
G05  20617941.011       57540.538        1537.021           0.255  
G06  24020964.560      179401.860        4901.386           0.255  
G07  22050687.844       46103.946        1263.042           0.255  
G09  24178864.623       16987.859         467.028           0.255  
> 2026 02 15 23 35 39.5688020  0  7                     
G02  23513723.565       51640.543        1315.518           0.255  
G03  24022202.826      171942.491        4497.702           0.255  
G04  20997539.105      122193.161        3240.702           0.255  
G05  20617898.531       57694.112        1536.345           0.255  
G06  24020843.697      179891.763        4898.922           0.255  
G07  22050656.787       46229.814        1228.733           0.255  
G09  24178854.278       17034.347         463.783           0.255  
> 2026 02 15 23 35 39.6688020  0  7                     
G02  23513691.683       51772.958        1325.079           0.255  
G03  24022086.363      172392.794        4506.596           0.255  
G04  20997458.096      122516.743        3235.649           0.255  
G05  20617857.666       57848.479        1543.773           0.255  
G06  24020718.047      180382.469        4907.789           0.255  
G07  22050624.748       46357.508        1274.787           0.255  
G09  24178840.769       17081.662         475.575           0.255  
> 2026 02 15 23 35 39.7688020  0  7                     
G02  23513654.789       51905.656        1326.116           0.255  
G03  24021976.961      172843.395        4504.171           0.255  
G04  20997374.359      122840.563        3235.396           0.255  
G05  20617816.596       58003.118        1544.329           0.255  
G06  24020591.049      180873.455        4908.028           0.255  
G07  22050592.845       46484.917        1272.829           0.255  
G09  24178834.858       17129.216         475.962           0.255  
> 2026 02 15 23 35 39.8688020  0  7                     
G02  23513621.969       52038.826        1332.960           0.255  
G03  24021856.661      173294.501        4510.757           0.255  
G04  20997293.376      123164.900        3245.140           0.255  
G05  20617776.101       58158.255        1552.974           0.255  
G06  24020468.545      181364.901        4916.653           0.255  
G07  22050558.436       46612.829        1280.206           0.255  
G09  24178819.877       17177.272         483.660           0.255  
> 2026 02 15 23 35 39.9688020  0  7                     
G02  23513586.247       52172.386        1333.384           0.255  
G03  24021738.025      173745.970        4515.281           0.255  
G04  20997209.378      123489.575        3246.521           0.255  
G05  20617739.357       58313.783        1555.682           0.255  
G06  24020341.294      181856.755        4918.939           0.255  
G07  22050529.982       46741.131        1280.430           0.255  
G09  24178801.097       17225.717         486.344           0.255  
> 2026 02 15 23 35 40.0688020  0  7                     
G02  23513552.329       52305.523        1450.359           0.255  
G03  24021623.174      174197.242        4510.392           0.255  
G04  20997123.560      123814.075        3244.127           0.255  
G05  20617700.270       58469.098        1553.236           0.255  
G06  24020212.800      182348.430        4916.970           0.255  
G07  22050496.652       46869.284        1280.742           0.255  
G09  24178789.950       17273.928         482.123           0.255  
> 2026 02 15 23 35 40.1688020  0  7                     
G02  23513521.234       52439.038        1331.878           0.255  
G03  24021511.182      174648.436        4509.741           0.255  
G04  20997041.283      124138.503        3241.401           0.255  
G05  20617660.162       58624.346        1549.809           0.255  
G06  24020088.519      182840.025        4912.712           0.255  
G07  22050460.729       46997.335        1279.704           0.255  
G09  24178777.362       17322.109         479.141           0.255  
> 2026 02 15 23 35 40.2688020  0  7                     
G02  23513486.949       52572.292        1332.506           0.255  
G03  24021394.177      175099.630        4510.067           0.255  
G04  20996959.719      124462.906        3242.345           0.255  
G05  20617619.898       58779.540        1551.104           0.255  
G06  24019965.253      183331.577        4913.875           0.255  
G07  22050427.851       47125.304        1277.860           0.255  
G09  24178764.266       17370.234         480.647           0.255  
> 2026 02 15 23 35 40.3688020  0  7                     
G02  23513449.945       52705.334        1330.195           0.255  
G03  24021276.970      175550.633        4507.878           0.255  
G04  20996880.592      124787.101        3241.407           0.255  
G05  20617581.203       58934.553        1549.625           0.255  
G06  24019836.675      183822.942        4913.559           0.255  
G07  22050397.871       47253.113        1276.004           0.255  
G09  24178753.094       17418.121         477.436           0.255  
> 2026 02 15 23 35 40.4688020  0  7                     
G02  23513413.661       52838.375        1329.767           0.255  
G03  24021170.262      176001.613        4507.958           0.255  
G04  20996796.864      125111.292        3241.046           0.255  
G05  20617540.582       59089.579        1549.626           0.255  
G06  24019713.164      184314.323        4913.530           0.255  
G07  22050363.939       47380.783        1195.394           0.255  
G09  24178738.131       17466.079         478.544           0.255  
> 2026 02 15 23 35 40.5688020  0  7                     
G02  23513379.965       52971.463        1332.652           0.255  
G03  24021061.352      176452.661        4510.121           0.255  
G04  20996712.695      125435.525        3242.159           0.255  
G05  20617498.990       59244.620        1549.583           0.255  
G06  24019589.600      184805.727        4913.641           0.255  
G07  22050331.165       47508.782        1275.798           0.255  
G09  24178725.988       17514.033         479.111           0.255  
> 2026 02 15 23 35 40.6688020  0  7                     
G02  23513347.791       53103.997        1322.155           0.255  
G03  24020939.676      176903.135        4502.904           0.255  
G04  20996626.019      125759.207        3235.564           0.255  
G05  20617459.574       59399.123        1542.838           0.255  
G06  24019461.575      185296.584        4906.482           0.255  
G07  22050298.385       47636.106        1270.946           0.255  
G09  24178717.309       17561.443         471.244           0.255  
> 2026 02 15 23 35 40.7688020  0  7                     
G02  23513316.730       53236.571        1326.047           0.255  
G03  24020818.616      177353.654        4505.859           0.255  
G04  20996545.273      126082.928        3236.375           0.255  
G05  20617422.764       59553.656        1544.282           0.255  
G06  24019332.862      185787.477        4909.380           0.255  
G07  22050262.658       47763.436        1272.495           0.255  
G09  24178704.272       17608.890         472.310           0.255  
> 2026 02 15 23 35 40.8688020  0  7                     
G02  23513284.489       53369.204        1328.731           0.255  
G03  24020701.960      177804.235        4507.751           0.255  
G04  20996461.767      126406.703        3239.196           0.255  
G05  20617383.094       59708.252        1547.909           0.255  
G06  24019208.185      186278.445        4912.064           0.255  
G07  22050230.075       47890.825        1274.371           0.255  
G09  24178693.874       17656.386         474.202           0.255  
> 2026 02 15 23 35 40.9688020  0  7                     
G02  23513253.387       53501.999        1331.192           0.255  
G03  24020589.821      178254.997        4506.283           0.255  
G04  20996380.927      126730.638        3240.232           0.255  
G05  20617340.339       59863.020        1548.309           0.255  
G06  24019083.616      186769.576        4911.369           0.255  
G07  22050201.097       48018.423        1276.464           0.255  
G09  24178683.698       17704.080         479.374           0.255  
> 2026 02 15 23 35 41.0688020  0  7                     
G02  23513211.292       53634.904        1329.018           0.255  
G03  24020475.830      178705.862        4508.674           0.255  
G04  20996299.941      127054.696        3238.621           0.255  
G05  20617299.581       60017.887        1545.994           0.255  
G06  24018957.785      187260.819        4909.629           0.255  
G07  22050167.550       48146.093        1272.695           0.255  
G09  24178664.950       17751.833         475.323           0.255  
> 2026 02 15 23 35 41.1688020  0  7                     
G02  23513176.112       53767.916        1333.905           0.255  
G03  24020356.637      179156.847        4513.490           0.255  
G04  20996216.360      127378.877        3245.365           0.255  
G05  20617261.737       60172.895        1552.687           0.255  
G06  24018834.252      187752.212        4917.325           0.255  
G07  22050133.072       48273.917        1281.959           0.255  
G09  24178652.815       17799.760         482.030           0.255  
> 2026 02 15 23 35 41.2688020  0  7                     
G02  23513143.578       53900.999        1300.231           0.255  
G03  24020242.405      179607.920        4506.981           0.255  
G04  20996133.445      127703.176        3242.672           0.255  
G05  20617225.076       60328.017        1551.567           0.255  
G06  24018711.979      188243.679        4914.588           0.255  
G07  22050100.230       48401.852        1278.972           0.255  
G09  24178637.821       17847.816         486.495           0.255  
> 2026 02 15 23 35 41.3688020  0  7                     
G02  23513112.205       54034.370        1336.104           0.255  
G03  24020135.847      180059.211        4517.753           0.255  
G04  20996048.109      128027.577        3248.070           0.255  
G05  20617185.917       60483.260        1554.353           0.255  
G06  24018585.109      188735.311        4920.603           0.255  
G07  22050066.401       48529.911        1283.795           0.255  
G09  24178626.673       17895.947         485.280           0.255  
> 2026 02 15 23 35 41.4688020  0  7                     
G02  23513082.885       54167.639        1333.005           0.255  
G03  24020019.594      180510.417        4511.289           0.255  
G04  20995965.050      128351.979        3240.619           0.255  
G05  20617148.618       60638.489        1549.434           0.255  
G06  24018455.272      189226.898        4913.091           0.255  
G07  22050029.996       48657.964        1278.687           0.255  
G09  24178617.675       17944.100         478.641           0.255  
> 2026 02 15 23 35 41.5688020  0  7                     
G02  23513047.301       54300.870        1326.989           0.255  
G03  24019900.392      180961.642        4514.192           0.255  
G04  20995881.087      128676.379        3241.229           0.255  
G05  20617107.802       60793.714        1548.344           0.255  
G06  24018330.234      189718.512        4914.115           0.255  
G07  22050000.608       48785.562        1172.864           0.255  
G09  24178605.259       17992.221         477.044           0.255  
> 2026 02 15 23 35 41.6688020  0  7                     
G02  23513007.325       54434.130        1334.548           0.255  
G03  24019786.441      181412.866        4513.338           0.255  
G04  20995799.851      129000.794        3245.449           0.255  
G05  20617065.527       60948.968        1553.985           0.255  
G06  24018206.092      190210.155        4918.562           0.255  
G07  22049969.146       48914.049        1281.038           0.255  
G09  24178592.492       18040.381         484.929           0.255  
> 2026 02 15 23 35 41.7688020  0  7                     
G02  23512969.648       54567.207        1328.433           0.255  
G03  24019672.192      181863.899        4507.311           0.255  
G04  20995720.410      129325.011        3239.522           0.255  
G05  20617022.224       61104.005        1548.291           0.255  
G06  24018080.461      190701.575        4911.369           0.255  
G07  22049936.613       49041.926        1274.868           0.255  
G09  24178579.219       18088.310         476.978           0.255  
> 2026 02 15 23 35 41.8688020  0  7                     
G02  23512939.893       54699.623        1322.252           0.255  
G03  24019553.579      182314.332        4503.578           0.255  
G04  20995638.263      129648.592        3235.244           0.255  
G05  20616982.713       61258.394        1542.206           0.255  
G06  24017957.147      191192.374        4905.375           0.255  
G07  22049900.668       49169.149        1270.106           0.255  
G09  24178566.570       18135.618         472.432           0.255  
> 2026 02 15 23 35 41.9688020  0  7                     
G02  23512911.501       54832.099        1328.357           0.255  
G03  24019433.243      182764.754        4508.771           0.255  
G04  20995555.581      129972.203        3237.979           0.255  
G05  20616945.634       61412.837        1546.173           0.255  
G06  24017833.779      191683.213        4910.553           0.255  
G07  22049865.426       49296.422        1275.621           0.255  
G09  24178557.990       18182.954         474.270           0.255  
> 2026 02 15 23 35 42.0688020  0  7                     
G02  23512876.775       54964.364        1337.725           0.255  
G03  24019324.258      183215.569        4510.076           0.255  
G04  20995470.509      130296.184        3241.010           0.255  
G05  20616906.285       61567.660        1550.148           0.255  
G06  24017707.439      192174.425        4913.268           0.255  
G07  22049830.946       49424.839        1368.505           0.255  
G09  24178542.362       18230.684         480.860           0.255  
> 2026 02 15 23 35 42.1688020  0  7                     
G02  23512842.943       55097.740        1325.413           0.255  
G03  24019215.429      183666.365        4505.495           0.255  
G04  20995386.278      130620.160        3238.045           0.255  
G05  20616867.979       61722.457        1547.260           0.255  
G06  24017577.238      192665.632        4912.246           0.255  
G07  22049803.654       49551.691        1275.229           0.255  
G09  24178526.263       18278.388         475.904           0.255  
> 2026 02 15 23 35 42.2688020  0  7                     
G02  23512809.127       55230.400        1327.371           0.255  
G03  24019094.436      184117.021        4508.863           0.255  
G04  20995302.749      130943.956        3240.489           0.255  
G05  20616828.979       61877.075        1548.290           0.255  
G06  24017453.440      193156.661        4913.461           0.255  
G07  22049773.618       49679.151        1276.629           0.255  
G09  24178517.672       18325.908         473.945           0.255  
> 2026 02 15 23 35 42.3688020  0  7                     
G02  23512774.233       55362.834        1319.520           0.255  
G03  24018978.598      184567.436        4500.654           0.255  
G04  20995221.139      131267.563        3233.926           0.255  
G05  20616790.104       62031.509        1543.671           0.255  
G06  24017331.422      193647.483        4907.129           0.255  
G07  22049737.566       49806.408        1270.826           0.255  
G09  24178504.550       18373.246         471.269           0.255  
> 2026 02 15 23 35 42.4688020  0  7                     
G02  23512738.191       55495.434        1321.285           0.255  
G03  24018867.258      185018.008        4503.975           0.255  
G04  20995140.548      131591.278        3235.117           0.255  
G05  20616748.811       62186.046        1544.640           0.255  
G06  24017202.810      194138.438        4908.722           0.255  
G07  22049704.209       49933.785        1272.699           0.255  
G09  24178491.460       18420.678         471.980           0.255  
> 2026 02 15 23 35 42.5688020  0  7                     
G02  23512704.952       55627.810        1325.181           0.255  
G03  24018750.866      185468.384        4506.118           0.255  
G04  20995058.822      131914.804        3238.422           0.255  
G05  20616707.918       62340.410        1546.766           0.255  
G06  24017081.472      194629.207        4912.851           0.255  
G07  22049669.510       50060.978        1274.338           0.255  
G09  24178481.783       18467.956         474.321           0.255  
> 2026 02 15 23 35 42.6688020  0  7                     
G02  23512671.716       55760.935        1332.393           0.255  
G03  24018630.815      185919.492        4515.604           0.255  
G04  20994974.879      132239.072        3243.590           0.255  
G05  20616668.407       62495.514        1552.230           0.255  
G06  24016959.008      195120.724        4916.833           0.255  
G07  22049636.795       50188.904        1280.173           0.255  
G09  24178472.268       18515.950         480.352           0.255  
> 2026 02 15 23 35 42.7688020  0  7                     
G02  23512638.211       55893.986        1331.614           0.255  
G03  24018515.471      186370.551        4509.349           0.255  
G04  20994887.887      132563.283        3241.774           0.255  
G05  20616629.791       62650.563        1550.337           0.255  
G06  24016827.166      195612.160        4913.429           0.255  
G07  22049605.262       50316.911        1280.976           0.255  
G09  24178464.194       18563.881         479.917           0.255  
> 2026 02 15 23 35 42.8688020  0  7                     
G02  23512603.215       56027.082        1332.561           0.255  
G03  24018403.364      186821.614        4512.922           0.255  
G04  20994805.243      132887.510        3243.233           0.255  
G05  20616589.976       62805.623        1551.460           0.255  
G06  24016701.214      196103.647        4916.983           0.255  
G07  22049576.107       50444.700        1280.537           0.255  
G09  24178445.377       18611.839         480.025           0.255  
> 2026 02 15 23 35 42.9688020  0  7                     
G02  23512570.053       56160.184        1329.298           0.255  
G03  24018290.887      187272.747        4508.889           0.255  
G04  20994723.148      133211.783        3240.272           0.255  
G05  20616547.632       62960.721        1549.643           0.255  
G06  24016578.160      196595.183        4913.018           0.255  
G07  22049542.105       50572.636        1277.839           0.255  
G09  24178429.582       18659.849         478.256           0.255  
> 2026 02 15 23 35 43.0688020  0  7                     
G02  23512535.188       56292.904        1326.518           0.255  
G03  24018170.931      187723.448        4504.605           0.255  
G04  20994645.530      133535.648        3237.770           0.255  
G05  20616507.080       63115.427        1546.319           0.255  
G06  24016451.706      197086.316        4909.361           0.255  
G07  22049508.459       50700.188        1275.089           0.255  
G09  24178417.256       18707.466         476.345           0.255  
> 2026 02 15 23 35 43.1688020  0  7                     
G02  23512500.275       56425.658        1332.520           0.255  
G03  24018055.090      188174.199        4506.840           0.255  
G04  20994562.552      133859.546        3239.833           0.255  
G05  20616469.097       63270.168        1548.683           0.255  
G06  24016326.943      197577.475        4912.764           0.255  
G07  22049474.040       50827.764        1278.490           0.255  
G09  24178407.687       18755.097         477.728           0.255  
> 2026 02 15 23 35 43.2688020  0  7                     
G02  23512466.767       56558.001        1320.241           0.255  
G03  24017946.647      188624.595        4499.207           0.255  
G04  20994478.204      134183.073        3229.432           0.255  
G05  20616429.870       63424.518        1538.271           0.255  
G06  24016204.297      198068.285        4902.551           0.255  
G07  22049441.790       50954.970        1266.726           0.255  
G09  24178394.884       18802.353         467.012           0.255  
> 2026 02 15 23 35 43.3688020  0  7                     
G02  23512434.389       56689.802        1318.298           0.255  
G03  24017836.590      189074.431        4500.378           0.255  
G04  20994393.293      134506.043        3230.985           0.255  
G05  20616392.088       63578.322        1539.423           0.255  
G06  24016080.098      198558.512        4903.104           0.255  
G07  22049408.503       51081.618        1267.318           0.255  
G09  24178376.034       18849.026         466.512           0.255  
> 2026 02 15 23 35 43.4688020  0  7                     
G02  23512397.675       56822.236        1329.245           0.255  
G03  24017712.959      189524.859        4509.116           0.255  
G04  20994307.700      134829.588        3239.399           0.255  
G05  20616354.953       63732.729        1548.170           0.255  
G06  24015948.263      199049.357        4913.532           0.255  
G07  22049381.431       51208.856        1275.292           0.255  
G09  24178367.186       18896.313         474.233           0.255  
> 2026 02 15 23 35 43.5688020  0  7                     
G02  23512367.062       56954.538        1323.651           0.255  
G03  24017596.097      189975.180        4504.791           0.255  
G04  20994224.324      135153.117        3228.955           0.255  
G05  20616314.245       63887.047        1542.619           0.255  
G06  24015823.073      199540.117        4908.174           0.255  
G07  22049352.616       51336.024        1269.802           0.255  
G09  24178361.249       18943.520         471.377           0.255  
> 2026 02 15 23 35 43.6688020  0  7                     
G02  23512333.077       57086.315        1265.868           0.255  
G03  24017484.007      190425.208        4497.893           0.255  
G04  20994146.007      135476.215        3231.042           0.255  
G05  20616270.862       64041.020        1539.554           0.255  
G06  24015701.496      200030.544        4904.256           0.255  
G07  22049314.849       51462.933        1257.596           0.255  
G09  24178344.603       18990.419         467.543           0.255  
> 2026 02 15 23 35 43.7688020  0  7                     
G02  23512296.465       57219.476        1334.148           0.255  
G03  24017371.053      190876.207        4514.829           0.255  
G04  20994069.404      135800.302        3246.179           0.255  
G05  20616230.583       64195.965        1555.367           0.255  
G06  24015571.961      200521.918        4917.788           0.255  
G07  22049280.194       51590.662        1284.686           0.255  
G09  24178333.885       19038.279         486.336           0.255  
> 2026 02 15 23 35 43.8688020  0  7                     
G02  23512262.899       57352.730        1330.680           0.255  
G03  24017250.423      191327.467        4512.220           0.255  
G04  20993985.489      136124.709        3243.367           0.255  
G05  20616189.424       64351.211        1551.307           0.255  
G06  24015449.579      201013.607        4915.460           0.255  
G07  22049247.839       51718.743        1278.382           0.255  
G09  24178325.339       19086.406         482.048           0.255  
> 2026 02 15 23 35 43.9688020  0  7                     
G02  23512229.963       57485.382        1320.377           0.255  
G03  24017140.267      191778.128        4504.092           0.255  
G04  20993898.446      136448.515        3235.734           0.255  
G05  20616148.955       64505.847        1543.299           0.255  
G06  24015329.501      201504.698        4908.144           0.255  
G07  22049215.527       51846.252        1272.765           0.255  
G09  24178312.645       19133.912         472.080           0.255  
> 2026 02 15 23 35 44.0688020  0  7                     
G02  23512195.072       57617.618        1336.249           0.255  
G03  24017026.221      192228.510        4505.042           0.255  
G04  20993813.693      136772.018        3238.769           0.255  
G05  20616109.006       64660.200        1547.816           0.255  
G06  24015203.086      201995.493        4910.764           0.255  
G07  22049186.443       51973.462        1276.533           0.255  
G09  24178299.699       19181.151         478.956           0.255  
> 2026 02 15 23 35 44.1688020  0  7                     
G02  23512157.308       57751.043        1334.504           0.255  
G03  24016910.627      192679.844        4512.067           0.255  
G04  20993730.604      137096.478        3245.545           0.255  
G05  20616071.892       64815.512        1554.601           0.255  
G06  24015072.760      202487.251        4920.793           0.255  
G07  22049156.768       52101.624        1282.554           0.255  
G09  24178282.775       19229.323         484.337           0.255  
> 2026 02 15 23 35 44.2688020  0  7                     
G02  23512124.533       57884.445        1332.462           0.255  
G03  24016795.444      193131.328        4512.254           0.255  
G04  20993647.890      137421.057        3244.531           0.255  
G05  20616035.840       64970.929        1552.960           0.255  
G06  24014945.506      202979.118        4917.101           0.255  
G07  22049119.585       52229.890        1281.083           0.255  
G09  24178267.440       19277.639         481.636           0.255  
> 2026 02 15 23 35 44.3688020  0  7                     
G02  23512092.262       58017.952        1335.804           0.255  
G03  24016680.440      193582.853        4518.745           0.255  
G04  20993566.862      137745.709        3248.755           0.255  
G05  20615994.953       65126.434        1556.793           0.255  
G06  24014822.917      203471.072        4919.931           0.255  
G07  22049084.357       52358.252        1283.192           0.255  
G09  24178259.817       19326.020         483.948           0.255  
> 2026 02 15 23 35 44.4688020  0  7                     
G02  23512057.838       58151.720        1383.380           0.255  
G03  24016564.421      194034.672        4518.488           0.255  
G04  20993486.904      138070.632        3250.739           0.255  
G05  20615954.545       65282.183        1557.869           0.255  
G06  24014696.883      203963.308        4923.860           0.255  
G07  22049051.943       52486.896        1303.191           0.255  
G09  24178246.053       19374.681         487.062           0.255  
> 2026 02 15 23 35 44.5688020  0  7                     
G02  23512019.281       58285.211        1335.483           0.255  
G03  24016442.784      194486.226        4514.897           0.255  
G04  20993404.465      138395.283        3246.544           0.255  
G05  20615915.022       65437.687        1552.575           0.255  
G06  24014572.959      204455.266        4918.353           0.255  
G07  22049020.535       52615.241        1281.973           0.255  
G09  24178227.867       19423.040         478.691           0.255  
> 2026 02 15 23 35 44.6688020  0  7                     
G02  23511984.328       58418.395        1331.214           0.255  
G03  24016326.312      194937.434        4509.133           0.255  
G04  20993319.420      138719.633        3242.402           0.255  
G05  20615873.185       65592.874        1548.733           0.255  
G06  24014449.957      204946.916        4912.595           0.255  
G07  22048987.917       52743.334        1279.622           0.255  
G09  24178217.561       19471.141         478.983           0.255  
> 2026 02 15 23 35 44.7688020  0  7                     
G02  23511951.344       58551.611        1333.969           0.255  
G03  24016213.157      195388.717        4517.530           0.255  
G04  20993233.210      139044.011        3246.544           0.255  
G05  20615834.351       65748.090        1554.368           0.255  
G06  24014320.423      205438.617        4919.245           0.255  
G07  22048956.992       52871.400        1284.128           0.255  
G09  24178212.594       19519.240         483.321           0.255  
> 2026 02 15 23 35 44.8688020  0  7                     
G02  23511917.444       58684.460        1321.781           0.255  
G03  24016100.588      195839.617        4506.488           0.255  
G04  20993150.171      139368.011        3235.457           0.255  
G05  20615795.637       65902.945        1544.530           0.255  
G06  24014191.638      205929.928        4907.543           0.255  
G07  22048923.508       52999.116        1274.585           0.255  
G09  24178195.320       19566.977         471.621           0.255  
> 2026 02 15 23 35 44.9688020  0  7                     
G02  23511886.012       58816.582        1318.646           0.255  
G03  24015986.590      196289.770        4498.375           0.255  
G04  20993069.561      139691.281        3231.169           0.255  
G05  20615755.511       66057.068        1539.069           0.255  
G06  24014067.938      206420.510        4904.131           0.255  
G07  22048888.912       53126.116        1268.239           0.255  
G09  24178185.751       19614.009         469.660           0.255  
> 2026 02 15 23 35 45.0688020  0  7                     
G02  23511850.613       58948.807        1326.888           0.255  
G03  24015874.058      196740.110        4508.481           0.255  
G04  20992986.904      140014.653        3238.249           0.255  
G05  20615711.987       66211.292        1547.263           0.255  
G06  24013943.357      206911.230        4913.806           0.255  
G07  22048855.452       53253.233        1278.892           0.255  
G09  24178175.459       19661.109         476.949           0.255  
> 2026 02 15 23 35 45.1688020  0  7                     
G02  23511815.861       59081.269        1322.661           0.255  
G03  24015761.647      197190.641        4506.980           0.255  
G04  20992905.102      140338.279        3234.362           0.255  
G05  20615673.370       66365.760        1541.427           0.255  
G06  24013818.260      207402.177        4907.906           0.255  
G07  22048822.573       53380.558        1271.338           0.255  
G09  24178161.819       19708.452         472.197           0.255  
> 2026 02 15 23 35 45.2688020  0  7                     
G02  23511781.522       59214.212        1283.052           0.255  
G03  24015647.411      197640.962        4498.433           0.255  
G04  20992822.226      140661.986        3253.686           0.255  
G05  20615633.678       66520.068        1539.881           0.255  
G06  24013696.090      207892.974        4905.021           0.255  
G07  22048792.210       53507.721        1268.861           0.255  
G09  24178145.460       19755.619         466.874           0.255  
> 2026 02 15 23 35 45.3688020  0  7                     
G02  23511748.921       59345.794        1323.526           0.255  
G03  24015527.264      198091.290        4503.828           0.255  
G04  20992740.104      140985.128        3236.629           0.255  
G05  20615598.043       66674.318        1545.390           0.255  
G06  24013571.247      208383.693        4909.731           0.255  
G07  22048760.216       53634.861        1274.802           0.255  
G09  24178131.525       19802.756         472.856           0.255  
> 2026 02 15 23 35 45.4688020  0  7                     
G02  23511713.336       59478.290        1323.500           0.255  
G03  24015410.875      198541.865        4508.868           0.255  
G04  20992656.033      141308.793        3235.916           0.255  
G05  20615560.824       66828.852        1546.344           0.255  
G06  24013446.167      208874.718        4911.443           0.255  
G07  22048724.962       53762.273        1276.745           0.255  
G09  24178115.722       19850.152         473.992           0.255  
> 2026 02 15 23 35 45.5688020  0  7                     
G02  23511681.837       59610.735        1324.869           0.255  
G03  24015294.709      198992.388        4506.217           0.255  
G04  20992572.003      141632.396        3237.976           0.255  
G05  20615521.699       66983.280        1545.306           0.255  
G06  24013316.219      209365.648        4910.870           0.255  
G07  22048688.228       53889.580        1275.886           0.255  
G09  24178112.131       19897.483         475.199           0.255  
> 2026 02 15 23 35 45.6688020  0  7                     
G02  23511651.064       59743.259        1326.309           0.255  
G03  24015181.650      199443.012        4510.204           0.255  
G04  20992490.391      141956.077        3237.458           0.255  
G05  20615481.018       67137.818        1545.417           0.255  
G06  24013190.523      209856.679        4911.291           0.255  
G07  22048655.418       54017.014        1274.236           0.255  
G09  24178099.644       19944.894         473.799           0.255  
> 2026 02 15 23 35 45.7688020  0  7                     
G02  23511613.981       59876.207        1332.631           0.255  
G03  24015066.458      199894.041        4516.380           0.255  
G04  20992409.365      142280.193        3244.009           0.255  
G05  20615440.046       67292.805        1552.300           0.255  
G06  24013066.748      210348.145        4916.362           0.255  
G07  22048624.556       54144.873        1281.628           0.255  
G09  24178087.450       19992.785         483.226           0.255  
> 2026 02 15 23 35 45.8688020  0  7                     
G02  23511575.457       60009.588        1336.401           0.255  
G03  24014945.901      200345.487        4514.831           0.255  
G04  20992326.792      142604.700        3245.015           0.255  
G05  20615399.681       67448.181        1554.417           0.255  
G06  24012939.425      210840.011        4919.169           0.255  
G07  22048592.830       54273.102        1281.120           0.255  
G09  24178075.124       20040.980         480.271           0.255  
> 2026 02 15 23 35 45.9688020  0  7                     
G02  23511542.071       60142.905        1330.979           0.255  
G03  24014836.882      200796.910        4515.039           0.255  
G04  20992242.867      142929.194        3244.719           0.255  
G05  20615358.332       67603.513        1553.382           0.255  
G06  24012817.469      211331.856        4917.298           0.255  
G07  22048560.206       54401.351        1280.544           0.255  
G09  24178064.855       20089.221         480.669           0.255  
> 2026 02 15 23 35 46.0688020  0  7                     
G02  23511510.221       60276.072        1328.798           0.255  
G03  24014725.323      201248.163        4512.053           0.255  
G04  20992160.332      143253.531        3241.491           0.255  
G05  20615317.544       67758.703        1550.392           0.255  
G06  24012695.013      211823.549        4915.788           0.255  
G07  22048526.448       54529.421        1278.466           0.255  
G09  24178050.938       20137.298         479.317           0.255  
> 2026 02 15 23 35 46.1688020  0  7                     
G02  23511475.195       60409.021        1330.270           0.255  
G03  24014610.236      201699.201        4511.061           0.255  
G04  20992075.175      143577.614        3241.050           0.255  
G05  20615280.960       67913.646        1549.006           0.255  
G06  24012565.946      212315.006        4915.113           0.255  
G07  22048491.424       54657.248        1277.077           0.255  
G09  24178037.750       20185.096         476.116           0.255  
> 2026 02 15 23 35 46.2688020  0  7                     
G02  23511447.024       60542.083        1330.596           0.255  
G03  24014488.005      202150.372        4512.680           0.255  
G04  20991989.777      143901.850        3241.599           0.255  
G05  20615244.114       68068.742        1551.007           0.255  
G06  24012436.764      212806.602        4916.085           0.255  
G07  22048459.655       54785.254        1278.393           0.255  
G09  24178022.192       20233.104         479.564           0.255  
> 2026 02 15 23 35 46.3688020  0  7                     
G02  23511409.883       60674.442        1322.608           0.255  
G03  24014375.828      202600.838        4506.196           0.255  
G04  20991908.609      144225.358        3234.405           0.255  
G05  20615204.056       68223.106        1542.573           0.255  
G06  24012312.057      213297.469        4908.094           0.255  
G07  22048428.225       54912.495        1269.906           0.255  
G09  24178004.452       20280.322         469.653           0.255  
> 2026 02 15 23 35 46.4688020  0  7                     
G02  23511377.579       60807.602        1366.027           0.255  
G03  24014257.793      203051.292        4509.798           0.255  
G04  20991828.692      144549.181        3300.739           0.255  
G05  20615164.435       68377.531        1546.944           0.255  
G06  24012188.273      213788.384        4909.700           0.255  
G07  22048393.986       55039.794        1273.158           0.255  
G09  24177996.384       20327.609         474.307           0.255  
> 2026 02 15 23 35 46.5688020  0  7                     
G02  23511343.514       60939.559        1325.694           0.255  
G03  24014143.259      203502.100        4506.672           0.255  
G04  20991749.094      144872.793        3236.967           0.255  
G05  20615122.539       68532.279        1547.912           0.255  
G06  24012057.848      214279.655        4912.763           0.255  
G07  22048359.260       55167.460        1278.242           0.255  
G09  24177982.712       20375.218         478.206           0.255  
> 2026 02 15 23 35 46.6688020  0  7                     
G02  23511309.302       61072.241        1329.443           0.255  
G03  24014027.002      203952.870        4507.159           0.255  
G04  20991666.490      145196.619        3237.664           0.255  
G05  20615083.440       68686.960        1549.195           0.255  
G06  24011935.500      214770.859        4914.354           0.255  
G07  22048328.559       55295.068        1281.673           0.255  
